[{"name":"bejab","lat":51.191700000000004,"lon":3.0642000000000005,"height":50,"maxrange":25,"dt":null,"nanrawday2018":150.26041666666666,"nanrawday2019":219.41666666666666,"scatter_lim":[],"nancleanday2018":[]},{"name":"bewid","lat":49.9143,"lon":5.5056,"height":590,"maxrange":25,"dt":null,"nanrawday2018":154.21527777777777,"nanrawday2019":209.28125,"scatter_lim":800,"nancleanday2018":69.513888888888886},{"name":"chalb","lat":47.284332275390632,"lon":8.51200008392334,"height":938,"maxrange":25,"dt":5,"nanrawday2018":[],"nanrawday2019":0,"scatter_lim":[],"nancleanday2018":[]},{"name":"chdol","lat":46.425113677978509,"lon":6.0994148254394531,"height":1682,"maxrange":25,"dt":5,"nanrawday2018":[],"nanrawday2019":0.003472222222222222,"scatter_lim":[],"nancleanday2018":[]},{"name":"chlem","lat":46.0407600402832,"lon":8.833216667175293,"height":1626,"maxrange":25,"dt":5,"nanrawday2018":[],"nanrawday2019":0,"scatter_lim":[],"nancleanday2018":[]},{"name":"chppm","lat":46.370647430419922,"lon":7.4865517616271973,"height":2937,"maxrange":25,"dt":5,"nanrawday2018":[],"nanrawday2019":0,"scatter_lim":[],"nancleanday2018":[]},{"name":"chwei","lat":46.8349723815918,"lon":9.7944583892822266,"height":2850,"maxrange":25,"dt":5,"nanrawday2018":[],"nanrawday2019":0,"scatter_lim":[],"nancleanday2018":[]},{"name":"czbrd","lat":49.6583,"lon":13.8178,"height":916,"maxrange":25,"dt":null,"nanrawday2018":25.041666666666668,"nanrawday2019":38.118055555555557,"scatter_lim":[],"nancleanday2018":[]},{"name":"czska","lat":49.5011,"lon":16.7885,"height":767,"maxrange":25,"dt":null,"nanrawday2018":14.90625,"nanrawday2019":27.5625,"scatter_lim":[],"nancleanday2018":[]},{"name":"deasb","lat":53.564000000000007,"lon":6.7483000000000013,"height":36,"maxrange":25,"dt":null,"nanrawday2018":153.42013888888889,"nanrawday2019":89.385416666666671,"scatter_lim":[],"nancleanday2018":[]},{"name":"deboo","lat":54.0044,"lon":10.0469,"height":124,"maxrange":25,"dt":null,"nanrawday2018":147.41319444444443,"nanrawday2019":61.232638888888886,"scatter_lim":400,"nancleanday2018":80.774305555555557},{"name":"dedrs","lat":51.124600000000008,"lon":13.7686,"height":263,"maxrange":25,"dt":null,"nanrawday2018":166.24305555555557,"nanrawday2019":73.982638888888886,"scatter_lim":600,"nancleanday2018":89.9375},{"name":"deeis","lat":49.5407,"lon":12.402800000000001,"height":799,"maxrange":25,"dt":null,"nanrawday2018":146.18055555555557,"nanrawday2019":64.729166666666671,"scatter_lim":1000,"nancleanday2018":89.3923611111111},{"name":"deemd","lat":53.339399999999991,"lon":7.025,"height":58,"maxrange":25,"dt":5,"nanrawday2018":3.7708333333333335,"nanrawday2019":[],"scatter_lim":[],"nancleanday2018":[]},{"name":"deess","lat":51.4056,"lon":6.9671,"height":185,"maxrange":25,"dt":null,"nanrawday2018":182.4340277777778,"nanrawday2019":72.086805555555557,"scatter_lim":400,"nancleanday2018":96.899305555555557},{"name":"defbg","lat":47.873610000000006,"lon":8.00361,"height":1516,"maxrange":25,"dt":5,"nanrawday2018":[],"nanrawday2019":30.020833333333332,"scatter_lim":[],"nancleanday2018":[]},{"name":"defld","lat":51.3112,"lon":8.802,"height":627,"maxrange":25,"dt":null,"nanrawday2018":169.64583333333334,"nanrawday2019":81.854166666666671,"scatter_lim":800,"nancleanday2018":86.5763888888889},{"name":"deflg","lat":47.8736,"lon":8.0036,"height":1516,"maxrange":25,"dt":5,"nanrawday2018":2.7430555555555554,"nanrawday2019":[],"scatter_lim":[],"nancleanday2018":[]},{"name":"dehnr","lat":52.4601,"lon":9.6945,"height":97,"maxrange":25,"dt":null,"nanrawday2018":175.17361111111111,"nanrawday2019":73.805555555555557,"scatter_lim":400,"nancleanday2018":85.3923611111111},{"name":"deisn","lat":48.1747,"lon":12.10177,"height":677,"maxrange":25,"dt":5,"nanrawday2018":[],"nanrawday2019":39.020833333333336,"scatter_lim":[],"nancleanday2018":[]},{"name":"demem","lat":48.0421,"lon":10.2192,"height":724,"maxrange":25,"dt":null,"nanrawday2018":170.16666666666666,"nanrawday2019":90.746527777777771,"scatter_lim":800,"nancleanday2018":83.947916666666671},{"name":"deneu","lat":50.5001,"lon":11.135,"height":879,"maxrange":25,"dt":null,"nanrawday2018":137.57638888888889,"nanrawday2019":63.552083333333336,"scatter_lim":1000,"nancleanday2018":82.569444444444443},{"name":"denhb","lat":50.1097,"lon":6.5482999999999993,"height":585,"maxrange":25,"dt":null,"nanrawday2018":163.72222222222223,"nanrawday2019":82.506944444444443,"scatter_lim":800,"nancleanday2018":83.277777777777786},{"name":"deoft","lat":49.9847,"lon":8.7129,"height":245,"maxrange":25,"dt":null,"nanrawday2018":171.33333333333334,"nanrawday2019":61.72569444444445,"scatter_lim":400,"nancleanday2018":103.0798611111111},{"name":"depro","lat":52.6487,"lon":13.8582,"height":193,"maxrange":25,"dt":null,"nanrawday2018":170.77083333333334,"nanrawday2019":85.041666666666671,"scatter_lim":400,"nancleanday2018":108.2673611111111},{"name":"deros","lat":54.1757,"lon":12.0581,"height":37,"maxrange":25,"dt":null,"nanrawday2018":162.66666666666666,"nanrawday2019":80.947916666666671,"scatter_lim":200,"nancleanday2018":70.795138888888886},{"name":"desna","lat":48.1747,"lon":12.1018,"height":677,"maxrange":25,"dt":null,"nanrawday2018":147.96875,"nanrawday2019":37.451388888888893,"scatter_lim":800,"nancleanday2018":84.465277777777786},{"name":"detur","lat":48.5854,"lon":9.7827,"height":767,"maxrange":25,"dt":null,"nanrawday2018":165.90972222222223,"nanrawday2019":80.888888888888886,"scatter_lim":1000,"nancleanday2018":89.121527777777771},{"name":"deumd","lat":52.1601,"lon":11.176099999999998,"height":185,"maxrange":25,"dt":null,"nanrawday2018":188.16319444444446,"nanrawday2019":95.59375,"scatter_lim":400,"nancleanday2018":83.461805555555557},{"name":"dkbor","lat":55.11275,"lon":14.887516999999999,"height":171,"maxrange":25,"dt":null,"nanrawday2018":0.28125,"nanrawday2019":25.715277777777775,"scatter_lim":[],"nancleanday2018":[]},{"name":"dkrom","lat":55.173111000000006,"lon":8.5519999999999978,"height":15,"maxrange":25,"dt":null,"nanrawday2018":3.2395833333333335,"nanrawday2019":82.833333333333329,"scatter_lim":[],"nancleanday2018":[]},{"name":"dksin","lat":57.489305999999985,"lon":10.136472,"height":109,"maxrange":25,"dt":null,"nanrawday2018":1.8159722222222223,"nanrawday2019":69.28125,"scatter_lim":[],"nancleanday2018":[]},{"name":"dkste","lat":55.326193999999994,"lon":12.449277999999998,"height":53,"maxrange":25,"dt":null,"nanrawday2018":3.8194444444444446,"nanrawday2019":75.899305555555557,"scatter_lim":[],"nancleanday2018":[]},{"name":"dkvir","lat":56.0240069,"lon":10.0245906,"height":142,"maxrange":25,"dt":null,"nanrawday2018":0,"nanrawday2019":18.670138888888889,"scatter_lim":[],"nancleanday2018":[]},{"name":"eehar","lat":59.397670011967428,"lon":24.602100010961294,"height":49,"maxrange":25,"dt":15,"nanrawday2018":2.3576388888888888,"nanrawday2019":14.805555555555555,"scatter_lim":[],"nancleanday2018":[]},{"name":"eesur","lat":58.482310026884086,"lon":25.518660116940737,"height":157,"maxrange":25,"dt":15,"nanrawday2018":2.4375,"nanrawday2019":13.59375,"scatter_lim":[],"nancleanday2018":[]},{"name":"esalm","lat":36.832500044256449,"lon":-2.0822199806571144,"height":499,"maxrange":25,"dt":null,"nanrawday2018":4.427083333333333,"nanrawday2019":4.739583333333333,"scatter_lim":[],"nancleanday2018":[]},{"name":"esbad","lat":39.4288901053369,"lon":-6.28527989611031,"height":665,"maxrange":25,"dt":null,"nanrawday2018":4.2569444444444446,"nanrawday2019":4.1319444444444446,"scatter_lim":[],"nancleanday2018":[]},{"name":"esbar","lat":41.408060118556023,"lon":1.8847200460731983,"height":664,"maxrange":25,"dt":null,"nanrawday2018":3.1493055555555554,"nanrawday2019":4.7881944444444446,"scatter_lim":[],"nancleanday2018":[]},{"name":"escor","lat":43.168890103697777,"lon":-8.5269399359822433,"height":616,"maxrange":25,"dt":null,"nanrawday2018":1.6493055555555556,"nanrawday2019":1.6666666666666667,"scatter_lim":[],"nancleanday2018":[]},{"name":"eslid","lat":41.995560117065907,"lon":-4.6027799695730343,"height":887,"maxrange":25,"dt":null,"nanrawday2018":8.8506944444444446,"nanrawday2019":8.1215277777777768,"scatter_lim":[],"nancleanday2018":[]},{"name":"eslpa","lat":28.018610011786219,"lon":-15.614439882338059,"height":1778,"maxrange":25,"dt":1880,"nanrawday2018":0.003472222222222222,"nanrawday2019":0,"scatter_lim":[],"nancleanday2018":[]},{"name":"esmad","lat":40.175829995423555,"lon":-3.7136099115014205,"height":717,"maxrange":25,"dt":10,"nanrawday2018":4.46875,"nanrawday2019":5.3298611111111116,"scatter_lim":[],"nancleanday2018":[]},{"name":"esmal","lat":36.613330040127032,"lon":-4.6591698937118187,"height":1160,"maxrange":25,"dt":10,"nanrawday2018":4.6493055555555554,"nanrawday2019":6.15625,"scatter_lim":[],"nancleanday2018":[]},{"name":"esmur","lat":38.264440074563026,"lon":-1.189719960093512,"height":1274,"maxrange":25,"dt":10,"nanrawday2018":1.1909722222222221,"nanrawday2019":2.3645833333333335,"scatter_lim":[],"nancleanday2018":[]},{"name":"espma","lat":39.379720017313964,"lon":2.78499998152256,"height":130,"maxrange":25,"dt":null,"nanrawday2018":1.8159722222222223,"nanrawday2019":1.9340277777777777,"scatter_lim":[],"nancleanday2018":[]},{"name":"essan","lat":43.462500125169761,"lon":-6.3019399344921245,"height":936,"maxrange":25,"dt":null,"nanrawday2018":3.2777777777777781,"nanrawday2019":5.2326388888888884,"scatter_lim":[],"nancleanday2018":[]},{"name":"essev","lat":37.687500100582838,"lon":-6.334439925849451,"height":530,"maxrange":25,"dt":null,"nanrawday2018":5.3923611111111107,"nanrawday2019":5.864583333333333,"scatter_lim":[],"nancleanday2018":[]},{"name":"essse","lat":43.403330091387033,"lon":-2.8419399261474751,"height":625,"maxrange":25,"dt":null,"nanrawday2018":4.5277777777777777,"nanrawday2019":4.9340277777777777,"scatter_lim":[],"nancleanday2018":[]},{"name":"esval","lat":39.17611001059413,"lon":-0.25210987776519245,"height":247,"maxrange":25,"dt":null,"nanrawday2018":1.0798611111111112,"nanrawday2019":1.6944444444444444,"scatter_lim":[],"nancleanday2018":[]},{"name":"eszar","lat":41.733890008181334,"lon":-0.54583003744484371,"height":836,"maxrange":25,"dt":10,"nanrawday2018":6.6701388888888893,"nanrawday2019":5.854166666666667,"scatter_lim":[],"nancleanday2018":[]},{"name":"fianj","lat":60.903870016336441,"lon":27.1080600656569,"height":139,"maxrange":25,"dt":15,"nanrawday2018":3.8229166666666665,"nanrawday2019":14.708333333333334,"scatter_lim":[],"nancleanday2018":[]},{"name":"fiika","lat":61.767339985817671,"lon":23.07644996792078,"height":153,"maxrange":25,"dt":15,"nanrawday2018":5.1493055555555554,"nanrawday2019":14.763888888888888,"scatter_lim":[],"nancleanday2018":[]},{"name":"fikes","lat":61.906992048025131,"lon":29.797720089554787,"height":174,"maxrange":25,"dt":15,"nanrawday2018":4.197916666666667,"nanrawday2019":13.25,"scatter_lim":[],"nancleanday2018":[]},{"name":"fikor","lat":60.128470044583082,"lon":21.643380057066679,"height":61,"maxrange":25,"dt":15,"nanrawday2018":5.947916666666667,"nanrawday2019":14.409722222222221,"scatter_lim":[],"nancleanday2018":[]},{"name":"fikuo","lat":62.862600088119507,"lon":27.381470035761595,"height":268,"maxrange":25,"dt":15,"nanrawday2018":2.9965277777777781,"nanrawday2019":14.041666666666666,"scatter_lim":[],"nancleanday2018":[]},{"name":"filuo","lat":67.1391000598669,"lon":26.896916069090366,"height":533,"maxrange":25,"dt":15,"nanrawday2018":1.8402777777777777,"nanrawday2019":11.545138888888888,"scatter_lim":[],"nancleanday2018":[]},{"name":"fipet","lat":62.304520066827536,"lon":25.440090000629425,"height":271,"maxrange":25,"dt":15,"nanrawday2018":[],"nanrawday2019":14.340277777777779,"scatter_lim":[],"nancleanday2018":[]},{"name":"fiuta","lat":64.774930123239756,"lon":26.318880077451468,"height":118,"maxrange":25,"dt":15,"nanrawday2018":3.7326388888888888,"nanrawday2019":14.041666666666666,"scatter_lim":[],"nancleanday2018":[]},{"name":"fivan","lat":60.270620081573725,"lon":24.869020041078329,"height":82,"maxrange":25,"dt":15,"nanrawday2018":7.9618055555555562,"nanrawday2019":14.795138888888888,"scatter_lim":[],"nancleanday2018":[]},{"name":"fivim","lat":63.104840107262127,"lon":23.8208600319922,"height":200,"maxrange":25,"dt":15,"nanrawday2018":3.46875,"nanrawday2019":14.010416666666666,"scatter_lim":[],"nancleanday2018":[]},{"name":"frabb","lat":50.13583,"lon":1.83472,"height":84,"maxrange":25,"dt":5,"nanrawday2018":211.7847222222222,"nanrawday2019":184.08333333333334,"scatter_lim":200,"nancleanday2018":88.010416666666671},{"name":"fraja","lat":41.95313,"lon":8.70054,"height":784,"maxrange":25,"dt":5,"nanrawday2018":[],"nanrawday2019":42.454861111111107,"scatter_lim":[],"nancleanday2018":[]},{"name":"frale","lat":42.12972,"lon":9.4963900000000017,"height":63,"maxrange":25,"dt":null,"nanrawday2018":81.871527777777786,"nanrawday2019":74.829861111111114,"scatter_lim":[],"nancleanday2018":[]},{"name":"frave","lat":50.12833,"lon":3.81194,"height":209,"maxrange":25,"dt":null,"nanrawday2018":216.02430555555554,"nanrawday2019":184.97569444444446,"scatter_lim":400,"nancleanday2018":94.243055555555557},{"name":"frbla","lat":47.355280000000008,"lon":4.77583,"height":607,"maxrange":25,"dt":null,"nanrawday2018":211.23263888888889,"nanrawday2019":175.625,"scatter_lim":800,"nancleanday2018":91.190972222222229},{"name":"frbol","lat":44.32306,"lon":4.76222,"height":325,"maxrange":25,"dt":null,"nanrawday2018":46.809027777777779,"nanrawday2019":57.770833333333336,"scatter_lim":[],"nancleanday2018":[]},{"name":"frbor","lat":44.83139,"lon":-0.69167,"height":70,"maxrange":25,"dt":null,"nanrawday2018":224.13541666666666,"nanrawday2019":208.8125,"scatter_lim":200,"nancleanday2018":93.4513888888889},{"name":"frbou","lat":47.058610000000009,"lon":2.35944,"height":174,"maxrange":25,"dt":5,"nanrawday2018":100.28819444444444,"nanrawday2019":211.48958333333334,"scatter_lim":600,"nancleanday2018":47.590277777777779},{"name":"frcae","lat":48.92722,"lon":-0.14944,"height":167,"maxrange":25,"dt":null,"nanrawday2018":232.6597222222222,"nanrawday2019":202.75694444444446,"scatter_lim":400,"nancleanday2018":98.5},{"name":"frche","lat":46.69861,"lon":0.06556,"height":174,"maxrange":25,"dt":null,"nanrawday2018":200.1875,"nanrawday2019":166.46875,"scatter_lim":600,"nancleanday2018":95.569444444444443},{"name":"frcol","lat":43.21667,"lon":6.37278,"height":654,"maxrange":25,"dt":null,"nanrawday2018":229.52083333333334,"nanrawday2019":202.23958333333334,"scatter_lim":[],"nancleanday2018":[]},{"name":"frgre","lat":45.10444,"lon":1.3694399999999998,"height":360,"maxrange":25,"dt":null,"nanrawday2018":196.67361111111111,"nanrawday2019":169.56597222222223,"scatter_lim":600,"nancleanday2018":96.2048611111111},{"name":"frlep","lat":45.29,"lon":3.70944,"height":1143,"maxrange":25,"dt":null,"nanrawday2018":228.6215277777778,"nanrawday2019":189.95138888888889,"scatter_lim":1200,"nancleanday2018":97.0763888888889},{"name":"frmcl","lat":43.990560000000009,"lon":2.60972,"height":679,"maxrange":25,"dt":null,"nanrawday2018":157.05555555555557,"nanrawday2019":149.23263888888889,"scatter_lim":1000,"nancleanday2018":86.881944444444443},{"name":"frmom","lat":43.62472,"lon":-0.60917,"height":146,"maxrange":25,"dt":null,"nanrawday2018":225.00694444444446,"nanrawday2019":214.69791666666666,"scatter_lim":400,"nancleanday2018":100.03125},{"name":"frmtc","lat":47.36861,"lon":7.01917,"height":926,"maxrange":25,"dt":null,"nanrawday2018":168.35416666666666,"nanrawday2019":112.82291666666667,"scatter_lim":1200,"nancleanday2018":92.565972222222229},{"name":"frnan","lat":48.71583,"lon":6.58167,"height":296,"maxrange":25,"dt":null,"nanrawday2018":229.2534722222222,"nanrawday2019":219.82986111111111,"scatter_lim":600,"nancleanday2018":94.84375},{"name":"frnim","lat":43.80611,"lon":4.50278,"height":78,"maxrange":25,"dt":null,"nanrawday2018":217.8159722222222,"nanrawday2019":169.42013888888889,"scatter_lim":[],"nancleanday2018":[]},{"name":"frniz","lat":46.06778,"lon":4.44528,"height":920,"maxrange":25,"dt":null,"nanrawday2018":201.42013888888889,"nanrawday2019":165.75,"scatter_lim":1000,"nancleanday2018":94.875},{"name":"fropo","lat":42.91833,"lon":2.8650000000000007,"height":717,"maxrange":25,"dt":null,"nanrawday2018":42.565972222222221,"nanrawday2019":5.197916666666667,"scatter_lim":[],"nancleanday2018":[]},{"name":"frpla","lat":48.46083,"lon":-4.43,"height":111,"maxrange":25,"dt":null,"nanrawday2018":216.0347222222222,"nanrawday2019":170.14583333333334,"scatter_lim":400,"nancleanday2018":91.6423611111111},{"name":"frtou","lat":43.57444,"lon":1.37611,"height":187,"maxrange":25,"dt":null,"nanrawday2018":206.39930555555554,"nanrawday2019":175.86111111111111,"scatter_lim":600,"nancleanday2018":98.5763888888889},{"name":"frtra","lat":48.77389,"lon":2.0075000000000003,"height":190,"maxrange":25,"dt":null,"nanrawday2018":233.30555555555554,"nanrawday2019":204.1840277777778,"scatter_lim":400,"nancleanday2018":103.1423611111111},{"name":"frtre","lat":47.3375,"lon":-1.65639,"height":81,"maxrange":25,"dt":null,"nanrawday2018":228.44444444444446,"nanrawday2019":197.5972222222222,"scatter_lim":200,"nancleanday2018":99.524305555555557},{"name":"frtro","lat":48.46222,"lon":4.3094399999999995,"height":165,"maxrange":25,"dt":null,"nanrawday2018":218.54166666666666,"nanrawday2019":203.64930555555554,"scatter_lim":400,"nancleanday2018":97.128472222222229},{"name":"hrbil","lat":45.883450079709291,"lon":17.200890071690083,"height":258,"maxrange":25,"dt":15,"nanrawday2018":0,"nanrawday2019":0,"scatter_lim":[],"nancleanday2018":[]},{"name":"hrosi","lat":45.502700116485357,"lon":18.561300113797188,"height":105,"maxrange":25,"dt":15,"nanrawday2018":0,"nanrawday2019":0,"scatter_lim":[],"nancleanday2018":[]},{"name":"hrzag","lat":45.907830018550165,"lon":15.968300029635429,"height":1024,"maxrange":25,"dt":15,"nanrawday2018":[],"nanrawday2019":0,"scatter_lim":[],"nancleanday2018":[]},{"name":"nldhl","lat":52.95279,"lon":4.79061,"height":55,"maxrange":25,"dt":null,"nanrawday2018":225.83333333333334,"nanrawday2019":246.35763888888889,"scatter_lim":600,"nancleanday2018":89.895833333333329},{"name":"nlhrw","lat":51.836900000000007,"lon":5.1381,"height":25,"maxrange":25,"dt":null,"nanrawday2018":219.4340277777778,"nanrawday2019":245.42708333333334,"scatter_lim":600,"nancleanday2018":92.083333333333329},{"name":"plbrz","lat":50.39417,"lon":20.07972,"height":453,"maxrange":25,"dt":null,"nanrawday2018":5.4097222222222223,"nanrawday2019":11.371527777777779,"scatter_lim":[],"nancleanday2018":[]},{"name":"plgda","lat":54.38425,"lon":18.45631,"height":158,"maxrange":25,"dt":null,"nanrawday2018":5.4756944444444438,"nanrawday2019":8.9479166666666661,"scatter_lim":[],"nancleanday2018":[]},{"name":"plleg","lat":52.405218999999995,"lon":20.960911,"height":119,"maxrange":25,"dt":null,"nanrawday2018":22.465277777777775,"nanrawday2019":37.388888888888893,"scatter_lim":[],"nancleanday2018":[]},{"name":"plpas","lat":50.891999999999996,"lon":16.0395,"height":688,"maxrange":25,"dt":null,"nanrawday2018":1.5243055555555556,"nanrawday2019":4.1736111111111116,"scatter_lim":[],"nancleanday2018":[]},{"name":"plpoz","lat":52.41326,"lon":16.79706,"height":130,"maxrange":25,"dt":null,"nanrawday2018":10.618055555555555,"nanrawday2019":15.788194444444445,"scatter_lim":[],"nancleanday2018":[]},{"name":"plram","lat":50.15167,"lon":18.726670000000002,"height":358,"maxrange":25,"dt":null,"nanrawday2018":0.28819444444444448,"nanrawday2019":0.84027777777777779,"scatter_lim":[],"nancleanday2018":[]},{"name":"plrze","lat":50.11409,"lon":22.03704,"height":235,"maxrange":25,"dt":null,"nanrawday2018":3.4722222222222219,"nanrawday2019":9.26736111111111,"scatter_lim":[],"nancleanday2018":[]},{"name":"plswi","lat":53.79028,"lon":15.83111,"height":146,"maxrange":25,"dt":null,"nanrawday2018":4.083333333333333,"nanrawday2019":5.6006944444444438,"scatter_lim":[],"nancleanday2018":[]},{"name":"ptfar","lat":37.305339965969317,"lon":-7.9517398774624,"height":616,"maxrange":25,"dt":20,"nanrawday2018":[],"nanrawday2019":7.520833333333333,"scatter_lim":[],"nancleanday2018":[]},{"name":"ptlis","lat":39.0713700838387,"lon":-8.3988798782229566,"height":193,"maxrange":25,"dt":770,"nanrawday2018":[],"nanrawday2019":0.21875,"scatter_lim":[],"nancleanday2018":[]},{"name":"ptprt","lat":40.845030080527067,"lon":-8.2796999439597272,"height":1097,"maxrange":25,"dt":20,"nanrawday2018":[],"nanrawday2019":13.243055555555555,"scatter_lim":[],"nancleanday2018":[]},{"name":"seang","lat":56.367500305175781,"lon":12.851699829101563,"height":209,"maxrange":25,"dt":null,"nanrawday2018":126.06597222222223,"nanrawday2019":47.43055555555555,"scatter_lim":[],"nancleanday2018":[]},{"name":"searl","lat":59.6543998718,"lon":17.9463005066,"height":74,"maxrange":25,"dt":null,"nanrawday2018":113.13194444444444,"nanrawday2019":18.895833333333332,"scatter_lim":[],"nancleanday2018":[]},{"name":"seatv","lat":58.105903625488288,"lon":15.936324119567873,"height":223,"maxrange":25,"dt":15,"nanrawday2018":[],"nanrawday2019":23.472222222222225,"scatter_lim":[],"nancleanday2018":[]},{"name":"sebaa","lat":59.611000061035149,"lon":17.58329963684082,"height":83,"maxrange":25,"dt":15,"nanrawday2018":[],"nanrawday2019":8.8993055555555554,"scatter_lim":[],"nancleanday2018":[]},{"name":"sehem","lat":57.303398132324219,"lon":18.400299072265625,"height":85,"maxrange":25,"dt":null,"nanrawday2018":100.59027777777777,"nanrawday2019":54.065972222222221,"scatter_lim":[],"nancleanday2018":[]},{"name":"sehuv","lat":61.577110290527344,"lon":16.714433670043945,"height":389,"maxrange":25,"dt":null,"nanrawday2018":78.253472222222214,"nanrawday2019":28.09375,"scatter_lim":[],"nancleanday2018":[]},{"name":"sekaa","lat":56.295543670654304,"lon":15.610224723815914,"height":132,"maxrange":25,"dt":15,"nanrawday2018":[],"nanrawday2019":39.451388888888893,"scatter_lim":[],"nancleanday2018":[]},{"name":"sekir","lat":67.708801269500015,"lon":20.6177997589,"height":647,"maxrange":25,"dt":null,"nanrawday2018":15.309027777777779,"nanrawday2019":8.2465277777777768,"scatter_lim":[],"nancleanday2018":[]},{"name":"sekkr","lat":56.295501709,"lon":15.610300064100002,"height":123,"maxrange":25,"dt":5,"nanrawday2018":46.83680555555555,"nanrawday2019":[],"scatter_lim":[],"nancleanday2018":[]},{"name":"selek","lat":60.723041534423842,"lon":14.877571105957031,"height":457,"maxrange":25,"dt":null,"nanrawday2018":46.66319444444445,"nanrawday2019":23.336805555555557,"scatter_lim":[],"nancleanday2018":[]},{"name":"sella","lat":65.430900573730469,"lon":21.864999771118164,"height":68,"maxrange":25,"dt":15,"nanrawday2018":[],"nanrawday2019":24.211805555555557,"scatter_lim":[],"nancleanday2018":[]},{"name":"selul","lat":65.4309005737,"lon":21.8649997711,"height":68,"maxrange":25,"dt":5,"nanrawday2018":98.21875,"nanrawday2019":[],"scatter_lim":[],"nancleanday2018":[]},{"name":"seoer","lat":63.639469146728509,"lon":18.401882171630859,"height":522,"maxrange":25,"dt":null,"nanrawday2018":59.208333333333336,"nanrawday2019":28.131944444444443,"scatter_lim":[],"nancleanday2018":[]},{"name":"seosd","lat":63.294998168945313,"lon":14.75909996032715,"height":466,"maxrange":25,"dt":null,"nanrawday2018":42.78819444444445,"nanrawday2019":23.427083333333332,"scatter_lim":[],"nancleanday2018":[]},{"name":"sevax","lat":58.255599975585938,"lon":12.826000213623047,"height":164,"maxrange":25,"dt":null,"nanrawday2018":127.6875,"nanrawday2019":57.15625,"scatter_lim":[],"nancleanday2018":[]},{"name":"sevil","lat":58.105899810800011,"lon":15.9363002777,"height":223,"maxrange":25,"dt":5,"nanrawday2018":109.98958333333333,"nanrawday2019":0.52083333333333337,"scatter_lim":[],"nancleanday2018":[]},{"name":"silis","lat":46.067769974470139,"lon":15.284899994730949,"height":950,"maxrange":25,"dt":null,"nanrawday2018":0.010416666666666666,"nanrawday2019":0,"scatter_lim":[],"nancleanday2018":[]},{"name":"sipas","lat":46.097980029881,"lon":14.228240065276625,"height":1043,"maxrange":25,"dt":10,"nanrawday2018":0.10416666666666667,"nanrawday2019":0,"scatter_lim":[],"nancleanday2018":[]},{"name":"skjav","lat":48.2561,"lon":17.1531,"height":600,"maxrange":25,"dt":null,"nanrawday2018":1.2256944444444444,"nanrawday2019":0.43055555555555558,"scatter_lim":[],"nancleanday2018":[]},{"name":"skkoj","lat":48.782894999999996,"lon":20.987277,"height":1256,"maxrange":25,"dt":null,"nanrawday2018":2.2430555555555558,"nanrawday2019":3.9861111111111112,"scatter_lim":[],"nancleanday2018":[]},{"name":"skkub","lat":49.27167,"lon":19.24935,"height":1425,"maxrange":25,"dt":null,"nanrawday2018":6.21875,"nanrawday2019":6.15625,"scatter_lim":[],"nancleanday2018":[]},{"name":"sklaz","lat":48.240429999999996,"lon":19.257430000000003,"height":661,"maxrange":25,"dt":null,"nanrawday2018":0.71875,"nanrawday2019":0.61805555555555558,"scatter_lim":[],"nancleanday2018":[]}]